{
"type": "FeatureCollection",
"name": "kmi_stations",
"features": [
{ "type": "Feature", "properties": { "gml_id": "synop_station.6459.2002-05-22 00:00:00+00", "name": "ERNAGE", "code": 6459, "altitude": 159.2, "date_begin": "2002-05-22T00:00:00Z", "date_end": null }, "geometry": { "type": "Point", "coordinates": [ 4.6892, 50.5819 ] } },
{ "type": "Feature", "properties": { "gml_id": "synop_station.6451.1952-01-01 00:00:00+00", "name": "ZAVENTEM/MELSBROEK", "code": 6451, "altitude": 58.0, "date_begin": "1952-01-01T00:00:00Z", "date_end": null }, "geometry": { "type": "Point", "coordinates": [ 4.5268, 50.8964 ] } },
{ "type": "Feature", "properties": { "gml_id": "synop_station.6449.1962-01-01 00:00:00+00", "name": "GOSSELIES", "code": 6449, "altitude": 192.0, "date_begin": "1962-01-01T00:00:00Z", "date_end": null }, "geometry": { "type": "Point", "coordinates": [ 4.4421, 50.4544 ] } },
{ "type": "Feature", "properties": { "gml_id": "synop_station.6450.1952-01-01 00:00:00+00", "name": "DEURNE", "code": 6450, "altitude": 14.0, "date_begin": "1952-01-01T00:00:00Z", "date_end": null }, "geometry": { "type": "Point", "coordinates": [ 4.4518, 51.1914 ] } },
{ "type": "Feature", "properties": { "gml_id": "synop_station.6464.2002-02-14 01:00:00+00", "name": "RETIE", "code": 6464, "altitude": 21.5, "date_begin": "2002-02-14T01:00:00Z", "date_end": null }, "geometry": { "type": "Point", "coordinates": [ 5.0272, 51.2214 ] } },
{ "type": "Feature", "properties": { "gml_id": "synop_station.6472.2002-04-01 00:00:00+00", "name": "HUMAIN", "code": 6472, "altitude": 295.3, "date_begin": "2002-04-01T00:00:00Z", "date_end": null }, "geometry": { "type": "Point", "coordinates": [ 5.2552, 50.1937 ] } },
{ "type": "Feature", "properties": { "gml_id": "synop_station.6494.2001-04-12 00:00:00+00", "name": "MONT RIGI", "code": 6494, "altitude": 673.2, "date_begin": "2001-04-12T00:00:00Z", "date_end": null }, "geometry": { "type": "Point", "coordinates": [ 6.0734, 50.5108 ] } },
{ "type": "Feature", "properties": { "gml_id": "synop_station.6484.2003-04-03 06:00:00+00", "name": "BUZENOL", "code": 6484, "altitude": 323.9, "date_begin": "2003-04-03T06:00:00Z", "date_end": null }, "geometry": { "type": "Point", "coordinates": [ 5.5872, 49.6204 ] } },
{ "type": "Feature", "properties": { "gml_id": "synop_station.6490.1952-01-01 00:00:00+00", "name": "SPA (AERODROME)", "code": 6490, "altitude": 482.0, "date_begin": "1952-01-01T00:00:00Z", "date_end": null }, "geometry": { "type": "Point", "coordinates": [ 5.9099, 50.4786 ] } },
{ "type": "Feature", "properties": { "gml_id": "synop_station.6476.1952-01-01 00:00:00+00", "name": "SAINT-HUBERT", "code": 6476, "altitude": 557.0, "date_begin": "1952-01-01T00:00:00Z", "date_end": null }, "geometry": { "type": "Point", "coordinates": [ 5.4038, 50.0389 ] } },
{ "type": "Feature", "properties": { "gml_id": "synop_station.6414.2003-08-01 07:00:00+00", "name": "BEITEM", "code": 6414, "altitude": 24.8, "date_begin": "2003-08-01T07:00:00Z", "date_end": null }, "geometry": { "type": "Point", "coordinates": [ 3.1217, 50.904 ] } },
{ "type": "Feature", "properties": { "gml_id": "synop_station.6418.2005-12-01 00:00:00+00", "name": "ZEEBRUGGE", "code": 6418, "altitude": 12.1, "date_begin": "2005-12-01T00:00:00Z", "date_end": null }, "geometry": { "type": "Point", "coordinates": [ 3.2018, 51.3474 ] } },
{ "type": "Feature", "properties": { "gml_id": "synop_station.6438.2012-08-05 00:00:00+00", "name": "STABROEK", "code": 6438, "altitude": 4.0, "date_begin": "2012-08-05T00:00:00Z", "date_end": null }, "geometry": { "type": "Point", "coordinates": [ 4.3638, 51.3248 ] } },
{ "type": "Feature", "properties": { "gml_id": "synop_station.6446.2001-08-23 00:00:00+00", "name": "UCCLE-UKKEL", "code": 6446, "altitude": 100.6, "date_begin": "2001-08-23T00:00:00Z", "date_end": "2003-12-09T08:00:00Z" }, "geometry": { "type": "Point", "coordinates": [ 4.3579, 50.7969 ] } },
{ "type": "Feature", "properties": { "gml_id": "synop_station.6447.2003-12-01 00:00:00+00", "name": "UCCLE-UKKEL", "code": 6447, "altitude": 100.6, "date_begin": "2003-12-01T00:00:00Z", "date_end": null }, "geometry": { "type": "Point", "coordinates": [ 4.3579, 50.7969 ] } },
{ "type": "Feature", "properties": { "gml_id": "synop_station.6477.2004-06-29 00:00:00+00", "name": "DIEPENBEEK", "code": 6477, "altitude": 39.3, "date_begin": "2004-06-29T00:00:00Z", "date_end": null }, "geometry": { "type": "Point", "coordinates": [ 5.4503, 50.9155 ] } },
{ "type": "Feature", "properties": { "gml_id": "synop_station.6478.1952-01-01 00:00:00+00", "name": "BIERSET", "code": 6478, "altitude": 178.0, "date_begin": "1952-01-01T00:00:00Z", "date_end": null }, "geometry": { "type": "Point", "coordinates": [ 5.4587, 50.6453 ] } },
{ "type": "Feature", "properties": { "gml_id": "synop_station.6439.2007-10-22 00:00:00+00", "name": "SINT-KATELIJNE-WAVER", "code": 6439, "altitude": 8.3, "date_begin": "2007-10-22T00:00:00Z", "date_end": null }, "geometry": { "type": "Point", "coordinates": [ 4.5246, 51.0751 ] } },
{ "type": "Feature", "properties": { "gml_id": "synop_station.6407.1955-01-01 00:00:00+00", "name": "MIDDELKERKE", "code": 6407, "altitude": 3.5, "date_begin": "1955-01-01T00:00:00Z", "date_end": null }, "geometry": { "type": "Point", "coordinates": [ 2.8873, 51.2003 ] } },
{ "type": "Feature", "properties": { "gml_id": "synop_station.6434.2003-04-02 06:00:00+00", "name": "MELLE", "code": 6434, "altitude": 15.0, "date_begin": "2003-04-02T06:00:00Z", "date_end": null }, "geometry": { "type": "Point", "coordinates": [ 3.816, 50.9803 ] } },
{ "type": "Feature", "properties": { "gml_id": "synop_station.6447.1952-01-01 00:00:00+00", "name": "UCCLE-UKKEL (FERME)", "code": 6447, "altitude": 100.0, "date_begin": "1952-01-01T00:00:00Z", "date_end": "2003-11-30T23:00:00Z" }, "geometry": { "type": "Point", "coordinates": [ 4.3579, 50.7967 ] } },
{ "type": "Feature", "properties": { "gml_id": "synop_station.6455.2000-02-08 03:00:00+00", "name": "DOURBES", "code": 6455, "altitude": 234.8, "date_begin": "2000-02-08T03:00:00Z", "date_end": null }, "geometry": { "type": "Point", "coordinates": [ 4.5946, 50.0954 ] } }
]
}
